{
  "data": [
      {
          "id": 16,
          "name": "荃灣廣場店",
          "address": "香港荃灣區新界荃灣大壩街4-30號荃灣廣場第3層301-302號鋪",
          "area": "荃灣區",
          "region": "新界",
          "latitude": 22.3711547045452,
          "longitude": 114.11113489072233,
          "waitingGroup": 30,
          "open": true,
          "localTicketing": true
      },
      {
          "id": 24,
          "name": "上水匯店",
          "address": " 新界上水石湖墟龍琛路48號上水匯1樓103A, 103B & 104號舖",
          "area": "北區",
          "region": "新界",
          "latitude": 22.503112145407126,
          "longitude": 114.1279281033839,
          "waitingGroup": 72,
          "open": true,
          "localTicketing": true
      },
      {
          "id": 11,
          "name": "坑口店",
          "address": "香港新界將軍澳常寧路2號TKO Gateway西翼1樓W101A號舖",
          "area": "西貢區",
          "region": "新界",
          "latitude": 22.3170625205288,
          "longitude": 114.26431245851346,
          "waitingGroup": 11,
          "open": true,
          "localTicketing": true
      },
      {
          "id": 15,
          "name": "寶琳店",
          "address": "香港西貢區新界西貢將軍澳貿業路8號新都城三期2樓201-202號舖",
          "area": "西貢區",
          "region": "新界",
          "latitude": 22.3228356450795,
          "longitude": 114.25682228285272,
          "waitingGroup": 14,
          "open": true,
          "localTicketing": true
      },
      {
          "id": 20,
          "name": "馬鞍山店",
          "address": "新界馬鞍山鞍祿街18號新港城中心四期3樓3231-32號舖",
          "area": "沙田區",
          "region": "新界",
          "latitude": 22.42393005,
          "longitude": 114.2313275423273,
          "waitingGroup": 39,
          "open": true,
          "localTicketing": true
      },
      {
          "id": 23,
          "name": "禾輋店",
          "address": "新界沙田德厚街3號禾輋廣場2樓227號舖",
          "area": "沙田區",
          "region": "新界",
          "latitude": 22.3883639808023,
          "longitude": 114.19484282674286,
          "waitingGroup": 0,
          "open": true,
          "localTicketing": true
      },
      {
          "id": 9,
          "name": "大埔店",
          "address": "香港大埔安邦路8及10號大埔超級城B區1樓128號舖",
          "area": "大埔區",
          "region": "新界",
          "latitude": 22.4513915996748,
          "longitude": 114.17022626974043,
          "waitingGroup": 22,
          "open": true,
          "localTicketing": true
      },
      {
          "id": 12,
          "name": "葵芳店",
          "address": "香港新界葵芳興芳路223號新都會廣場1樓176-177號舖",
          "area": "葵青區",
          "region": "新界",
          "latitude": 22.3571262819662,
          "longitude": 114.12678070369245,
          "waitingGroup": 65,
          "open": true,
          "localTicketing": true
      },
      {
          "id": 7,
          "name": "屯門市廣場店",
          "address": "香港新界屯門屯順街1號屯門市廣場1期2樓2192, 2193A及2193B號舖",
          "area": "屯門區",
          "region": "新界",
          "latitude": 22.3931881127136,
          "longitude": 113.9772300383522,
          "waitingGroup": 70,
          "open": true,
          "localTicketing": true
      },
      {
          "id": 13,
          "name": "天水圍 T Town店",
          "address": "香港新界天水圍天華路30號T Town South地下SG17號舖",
          "area": "元朗區",
          "region": "新界",
          "latitude": 22.4615388324928,
          "longitude": 113.99753567194648,
          "waitingGroup": 22,
          "open": true,
          "localTicketing": true
      },
      {
          "id": 17,
          "name": "元朗廣場店",
          "address": "香港元朗區新界元朗青山公路249-251號元朗廣場3樓341-348號舖",
          "area": "元朗區",
          "region": "新界",
          "latitude": 22.4447830911951,
          "longitude": 114.02366766690223,
          "waitingGroup": 18,
          "open": true,
          "localTicketing": true
      },
      {
          "id": 2,
          "name": "黃埔店",
          "address": "黃埔天地享膳坊地下G10號舖",
          "area": "九龍城區",
          "region": "九龍",
          "latitude": 22.303642,
          "longitude": 114.188333,
          "waitingGroup": 4,
          "open": true,
          "localTicketing": true
      },
      {
          "id": 6,
          "name": "藍田店",
          "address": "香港九龍藍田啓田道50號啓田商場2樓208號舖",
          "area": "觀塘區",
          "region": "九龍",
          "latitude": 22.3082938370125,
          "longitude": 114.23517431199038,
          "waitingGroup": 9,
          "open": true,
          "localTicketing": true
      },
      {
          "id": 3,
          "name": "荔枝角店",
          "address": "長沙灣道680號麗新商業中心G樓G38號舖",
          "area": "深水埗區",
          "region": "九龍",
          "latitude": 22.339199,
          "longitude": 114.152046,
          "waitingGroup": 31,
          "open": true,
          "localTicketing": true
      },
      {
          "id": 4,
          "name": "黃大仙店",
          "address": "香港九龍黃大仙龍翔道110號豪苑G3/F翔盈里5號舖",
          "area": "黃大仙區",
          "region": "九龍",
          "latitude": 22.342033,
          "longitude": 114.196866,
          "waitingGroup": 1,
          "open": true,
          "localTicketing": true
      },
      {
          "id": 5,
          "name": "樂富店",
          "address": "香港九龍聯合道198號樂富廣場UG1樓L109號舖",
          "area": "黃大仙區",
          "region": "九龍",
          "latitude": 22.3387263,
          "longitude": 114.1868761,
          "waitingGroup": 4,
          "open": true,
          "localTicketing": true
      },
      {
          "id": 21,
          "name": "新蒲崗Mikiki店",
          "address": "九龍新蒲崗太子道東638號Mikiki 1樓110號舖",
          "area": "黃大仙區",
          "region": "九龍",
          "latitude": 22.33326243,
          "longitude": 114.19613399542705,
          "waitingGroup": 3,
          "open": true,
          "localTicketing": true
      },
      {
          "id": 10,
          "name": "旺角店",
          "address": "香港九龍旺角彌敦道628號瓊華中心地庫",
          "area": "油尖旺區",
          "region": "九龍",
          "latitude": 22.3176566401426,
          "longitude": 114.17000769425294,
          "waitingGroup": 14,
          "open": true,
          "localTicketing": true
      },
      {
          "id": 14,
          "name": "佐敦薈店",
          "address": "香港油尖旺九龍佐敦彌敦道233-239號佐敦薈1樓",
          "area": "油尖旺區",
          "region": "九龍",
          "latitude": 22.3049641078219,
          "longitude": 114.17148516568379,
          "waitingGroup": 0,
          "open": true,
          "localTicketing": true
      },
      {
          "id": 22,
          "name": "尖沙咀加連威老道店",
          "address": "九龍尖沙咀加連威老道2-6號愛賓商業大廈地下G2, G3 & 103號舖",
          "area": "油尖旺區",
          "region": "九龍",
          "latitude": 22.2995653523818,
          "longitude": 114.1726131380032,
          "waitingGroup": 0,
          "open": true,
          "localTicketing": true
      },
      {
          "id": 8,
          "name": "上環店",
          "address": "香港上環德輔道中199號無限極廣場2樓201號舖",
          "area": "中西區",
          "region": "香港島",
          "latitude": 22.2863892107209,
          "longitude": 114.15353717194391,
          "waitingGroup": 79,
          "open": true,
          "localTicketing": true
      },
      {
          "id": 19,
          "name": "鰂魚涌店",
          "address": "香港鰂魚涌英皇道1060號栢惠苑購物商場UG樓B號舖",
          "area": "東區",
          "region": "香港島",
          "latitude": 22.28445712,
          "longitude": 114.21311968208846,
          "waitingGroup": 32,
          "open": true,
          "localTicketing": true
      },
      {
          "id": 18,
          "name": "銅鑼灣廣場2期店",
          "address": "香港銅鑼灣駱克道463-483號銅鑼灣廣場2期3樓3A號舖",
          "area": "灣仔區",
          "region": "香港島",
          "latitude": 22.280515546,
          "longitude": 114.18213888599352,
          "waitingGroup": 14,
          "open": true,
          "localTicketing": true
      }
  ]
}